{
  "updatedAt": "2026-02-04T20:30:07Z",
  "groundhogs": [
    {
      "id": 1,
      "slug": "punxsutawney-phil",
      "name": "Punxsutawney Phil",
      "shortName": null,
      "region": "Pennsylvania",
      "country": "USA",
      "state": null,
      "city": "Punxsutawney",
      "latitude": null,
      "longitude": null,
      "source": "https://www.groundhog.org/history-past-predictions",
      "predictionsCount": 131
    },
    {
      "id": 2,
      "slug": "octoraro-orphie",
      "name": "Octoraro Orphie",
      "shortName": null,
      "region": "Pennsylvania",
      "country": "USA",
      "state": null,
      "city": "Quarryville",
      "latitude": null,
      "longitude": null,
      "source": "https://orphie.neocities.org",
      "predictionsCount": 94
    },
    {
      "id": 3,
      "slug": "wiarton-willie",
      "name": "Wiarton Willie",
      "shortName": null,
      "region": "Ontario",
      "country": "Canada",
      "state": null,
      "city": "Wiarton",
      "latitude": null,
      "longitude": null,
      "source": "https://www.southbrucepeninsula.com/en/explore-and-play/wiarton-willie.aspx#Past-predictions",
      "predictionsCount": 63
    },
    {
      "id": 4,
      "slug": "jimmy-the-groundhog",
      "name": "Jimmy the Groundhog",
      "shortName": null,
      "region": "Wisconsin",
      "country": "USA",
      "state": null,
      "city": "Sun Prairie",
      "latitude": null,
      "longitude": null,
      "source": "https://www.cityofsunprairie.com/840/Groundhog-Day",
      "predictionsCount": 58
    },
    {
      "id": 5,
      "slug": "concord-charlie",
      "name": "Concord Charlie",
      "shortName": null,
      "region": "West Virginia",
      "country": "USA",
      "state": null,
      "city": "Athens",
      "latitude": null,
      "longitude": null,
      "source": "https://www.concord.edu/?s=concord+charlie",
      "predictionsCount": 48
    },
    {
      "id": 6,
      "slug": "buckeye-chuck",
      "name": "Buckeye Chuck",
      "shortName": null,
      "region": "Ohio",
      "country": "USA",
      "state": null,
      "city": "Marion",
      "latitude": null,
      "longitude": null,
      "source": "https://en.wikipedia.org/wiki/Buckeye_Chuck#Past_predictions",
      "predictionsCount": 43
    },
    {
      "id": 7,
      "slug": "general-beauregard-lee",
      "name": "General Beauregard Lee",
      "shortName": null,
      "region": "Georgia",
      "country": "USA",
      "state": null,
      "city": "Jackson",
      "latitude": null,
      "longitude": null,
      "source": "https://twitter.com/genbeaulee",
      "predictionsCount": 43
    },
    {
      "id": 8,
      "slug": "french-creek-freddie",
      "name": "French Creek Freddie",
      "shortName": null,
      "region": "West Virginia",
      "country": "USA",
      "state": null,
      "city": "Upshur County",
      "latitude": null,
      "longitude": null,
      "source": "https://wvdnr.gov/french-creek-freddie-facts-to-get-you-ready-for-groundhog-day/",
      "predictionsCount": 38
    },
    {
      "id": 9,
      "slug": "gertie-the-groundhog",
      "name": "Gertie the Groundhog",
      "shortName": null,
      "region": "Illinois",
      "country": "USA",
      "state": null,
      "city": "Hanna City",
      "latitude": null,
      "longitude": null,
      "source": "https://www.facebook.com/wildlifeprairiepark",
      "predictionsCount": 33
    },
    {
      "id": 10,
      "slug": "dunkirk-dave",
      "name": "Dunkirk Dave",
      "shortName": null,
      "region": "New York",
      "country": "USA",
      "state": null,
      "city": "Dunkirk",
      "latitude": null,
      "longitude": null,
      "source": "https://www.dunkirkdave.com",
      "predictionsCount": 31
    },
    {
      "id": 11,
      "slug": "malverne-mel",
      "name": "Malverne Mel",
      "shortName": null,
      "region": "New York",
      "country": "USA",
      "state": null,
      "city": "Malverne",
      "latitude": null,
      "longitude": null,
      "source": "https://www.facebook.com/crossroadsfarmatgrossmanns",
      "predictionsCount": 31
    },
    {
      "id": 12,
      "slug": "staten-island-chuck",
      "name": "Staten Island Chuck",
      "shortName": null,
      "region": "New York",
      "country": "USA",
      "state": null,
      "city": "New York City",
      "latitude": null,
      "longitude": null,
      "source": "https://en.wikipedia.org/wiki/Staten_Island_Chuck#Past_predictions",
      "predictionsCount": 31
    },
    {
      "id": 13,
      "slug": "lander-lil",
      "name": "Lander Lil",
      "shortName": null,
      "region": "Wyoming",
      "country": "USA",
      "state": null,
      "city": "Lander",
      "latitude": null,
      "longitude": null,
      "source": "https://www.facebook.com/BLMWyoming",
      "predictionsCount": 29
    },
    {
      "id": 14,
      "slug": "manitoba-merv",
      "name": "Manitoba Merv",
      "shortName": null,
      "region": "Manitoba",
      "country": "Canada",
      "state": null,
      "city": "Stonewall",
      "latitude": null,
      "longitude": null,
      "source": "https://x.com/OakHammockMarsh",
      "predictionsCount": 29
    },
    {
      "id": 15,
      "slug": "holtsville-hal",
      "name": "Holtsville Hal",
      "shortName": null,
      "region": "New York",
      "country": "USA",
      "state": null,
      "city": "Holtsville",
      "latitude": null,
      "longitude": null,
      "source": "https://www.facebook.com/brookhavenwildlifecenter",
      "predictionsCount": 28
    },
    {
      "id": 16,
      "slug": "shubenacadie-sam",
      "name": "Shubenacadie Sam",
      "shortName": null,
      "region": "Nova Scotia",
      "country": "Canada",
      "state": null,
      "city": "Shubenacadie",
      "latitude": null,
      "longitude": null,
      "source": "https://data.novascotia.ca/Lands-Forests-and-Wildlife/Shubenacadie-Wildlife-Park-Groundhog-Day-Predictio/4y37-h2yu",
      "predictionsCount": 28
    },
    {
      "id": 17,
      "slug": "woody-the-woodchuck",
      "name": "Woody the Woodchuck",
      "shortName": null,
      "region": "Michigan",
      "country": "USA",
      "state": null,
      "city": "Howell",
      "latitude": null,
      "longitude": null,
      "source": "https://www.facebook.com/howellnaturecenter",
      "predictionsCount": 28
    },
    {
      "id": 18,
      "slug": "woodstock-willie",
      "name": "Woodstock Willie",
      "shortName": null,
      "region": "Illinois",
      "country": "USA",
      "state": null,
      "city": "Woodstock",
      "latitude": null,
      "longitude": null,
      "source": "https://www.facebook.com/WoodstockGroundhogDays/",
      "predictionsCount": 27
    },
    {
      "id": 19,
      "slug": "mojave-max",
      "name": "Mojave Max",
      "shortName": null,
      "region": "Nevada",
      "country": "USA",
      "state": null,
      "city": "Las Vegas",
      "latitude": null,
      "longitude": null,
      "source": "https://www.mojavemax.com/learn/meet-mojave-max/index.html",
      "predictionsCount": 26
    },
    {
      "id": 20,
      "slug": "schnogadahl-sammi",
      "name": "Schnogadahl Sammi",
      "shortName": null,
      "region": "Pennsylvania",
      "country": "USA",
      "state": null,
      "city": "Kresgeville",
      "latitude": null,
      "longitude": null,
      "source": "https://groundhoglodge.org/schedule/groundhog-lodge-number-6/",
      "predictionsCount": 25
    },
    {
      "id": 21,
      "slug": "sir-walter-wally",
      "name": "Sir Walter Wally",
      "shortName": null,
      "region": "North Carolina",
      "country": "USA",
      "state": null,
      "city": "Raleigh",
      "latitude": null,
      "longitude": null,
      "source": "https://twitter.com/sirwalterw?lang=en",
      "predictionsCount": 23
    },
    {
      "id": 22,
      "slug": "poor-richard",
      "name": "Poor Richard",
      "shortName": null,
      "region": "Pennsylvania",
      "country": "USA",
      "state": null,
      "city": "York",
      "latitude": null,
      "longitude": null,
      "source": "https://www.facebook.com/ElksLodge213",
      "predictionsCount": 24
    },
    {
      "id": 23,
      "slug": "balzac-billy",
      "name": "Balzac Billy",
      "shortName": null,
      "region": "Alberta",
      "country": "Canada",
      "state": null,
      "city": "Balzac",
      "latitude": null,
      "longitude": null,
      "source": "https://www.facebook.com/bluegrasscgy",
      "predictionsCount": 22
    },
    {
      "id": 24,
      "slug": "uni-the-groundhog",
      "name": "Uni the Groundhog",
      "shortName": null,
      "region": "Pennsylvania",
      "country": "USA",
      "state": null,
      "city": "Myerstown",
      "latitude": null,
      "longitude": null,
      "source": "https://www.facebook.com/Grundsau-Lodsch-17-Om-Union-Kanal-598077903658052/",
      "predictionsCount": 22
    },
    {
      "id": 25,
      "slug": "grover-and-sue",
      "name": "Grover and Sue",
      "shortName": null,
      "region": "Pennsylvania",
      "country": "USA",
      "state": null,
      "city": "Pine Grove",
      "latitude": null,
      "longitude": null,
      "source": "https://www.facebook.com/SweetArrowLake",
      "predictionsCount": 20
    },
    {
      "id": 26,
      "slug": "ms-g",
      "name": "Ms. G",
      "shortName": null,
      "region": "Massachusetts",
      "country": "USA",
      "state": null,
      "city": "Lincoln",
      "latitude": null,
      "longitude": null,
      "source": "https://www.facebook.com/MassAudubonDrumlinFarm",
      "predictionsCount": 19
    },
    {
      "id": 27,
      "slug": "stormy-marmot",
      "name": "Stormy Marmot",
      "shortName": null,
      "region": "Colorado",
      "country": "USA",
      "state": null,
      "city": "Aurora",
      "latitude": null,
      "longitude": null,
      "source": "https://marmotadventures.com/blog/",
      "predictionsCount": 19
    },
    {
      "id": 28,
      "slug": "chuckles-the-groundhog",
      "name": "Chuckles the Groundhog",
      "shortName": null,
      "region": "Connecticut",
      "country": "USA",
      "state": null,
      "city": "Manchester",
      "latitude": null,
      "longitude": null,
      "source": "https://www.facebook.com/LutzMuseum",
      "predictionsCount": 18
    },
    {
      "id": 29,
      "slug": "stonewall-jackson",
      "name": "Stonewall Jackson",
      "shortName": null,
      "region": "New Jersey",
      "country": "USA",
      "state": null,
      "city": "Wantage",
      "latitude": null,
      "longitude": null,
      "source": "https://www.facebook.com/spacefarms",
      "predictionsCount": 18
    },
    {
      "id": 30,
      "slug": "flatiron-freddy",
      "name": "Flatiron Freddy",
      "shortName": null,
      "region": "Colorado",
      "country": "USA",
      "state": null,
      "city": "Boulder",
      "latitude": null,
      "longitude": null,
      "source": "https://twitter.com/boulderosmp",
      "predictionsCount": 17
    },
    {
      "id": 31,
      "slug": "two-rivers-tunnel",
      "name": "Two Rivers Tunnel",
      "shortName": null,
      "region": "Nova Scotia",
      "country": "Canada",
      "state": null,
      "city": "Cape Breton",
      "latitude": null,
      "longitude": null,
      "source": "https://www.facebook.com/TwoRiversWildlifePark/",
      "predictionsCount": 17
    },
    {
      "id": 32,
      "slug": "bee-cave-bob",
      "name": "Bee Cave Bob",
      "shortName": null,
      "region": "Texas",
      "country": "USA",
      "state": null,
      "city": "Bee Cave",
      "latitude": null,
      "longitude": null,
      "source": "https://twitter.com/beecavebob",
      "predictionsCount": 16
    },
    {
      "id": 33,
      "slug": "chilly-charlie",
      "name": "Chilly Charlie",
      "shortName": null,
      "region": "Ontario",
      "country": "Canada",
      "state": null,
      "city": "Woodstock",
      "latitude": null,
      "longitude": null,
      "source": "https://www.facebook.com/southgatectr",
      "predictionsCount": 16
    },
    {
      "id": 34,
      "slug": "fred-la-marmotte",
      "name": "Fred la Marmotte",
      "shortName": null,
      "region": "Quebec",
      "country": "Canada",
      "state": null,
      "city": "Val-d\u2019Espoir",
      "latitude": null,
      "longitude": null,
      "source": "https://www.fredlamarmotteofficielleduquebec.ca",
      "predictionsCount": 16
    },
    {
      "id": 35,
      "slug": "middlemiss-mike",
      "name": "Middlemiss Mike",
      "shortName": null,
      "region": "Ontario",
      "country": "Canada",
      "state": null,
      "city": "Melbourne",
      "latitude": null,
      "longitude": null,
      "source": "https://www.facebook.com/groups/1007977346248663",
      "predictionsCount": 16
    },
    {
      "id": 36,
      "slug": "snohomish-slew",
      "name": "Snohomish Slew",
      "shortName": null,
      "region": "Washington",
      "country": "USA",
      "state": null,
      "city": "Snohomish",
      "latitude": null,
      "longitude": null,
      "source": "https://www.facebook.com/Thefrogturtlerescuelady/",
      "predictionsCount": 14
    },
    {
      "id": 37,
      "slug": "beardsley-bart",
      "name": "Beardsley Bart",
      "shortName": null,
      "region": "Connecticut",
      "country": "USA",
      "state": null,
      "city": "Bridgeport",
      "latitude": null,
      "longitude": null,
      "source": "https://www.facebook.com/ConnecticutsBeardsleyZoo",
      "predictionsCount": 15
    },
    {
      "id": 38,
      "slug": "potomac-phil",
      "name": "Potomac Phil",
      "shortName": null,
      "region": "District of Columbia",
      "country": "USA",
      "state": null,
      "city": "Washington",
      "latitude": null,
      "longitude": null,
      "source": "https://x.com/PotomacPhil",
      "predictionsCount": 15
    },
    {
      "id": 39,
      "slug": "sand-mountain-sam",
      "name": "Sand Mountain Sam",
      "shortName": null,
      "region": "Alabama",
      "country": "USA",
      "state": null,
      "city": "Albertville",
      "latitude": null,
      "longitude": null,
      "source": "https://www.facebook.com/105wqsb/",
      "predictionsCount": 15
    },
    {
      "id": 40,
      "slug": "bowman-bill",
      "name": "Bowman Bill",
      "shortName": null,
      "region": "Virginia",
      "country": "USA",
      "state": null,
      "city": "Stephens City",
      "latitude": null,
      "longitude": null,
      "source": "https://www.handleyregional.org/GroundhogDay",
      "predictionsCount": 13
    },
    {
      "id": 41,
      "slug": "buffalo-bert",
      "name": "Buffalo Bert",
      "shortName": null,
      "region": "New York",
      "country": "USA",
      "state": null,
      "city": "Buffalo",
      "latitude": null,
      "longitude": null,
      "source": "https://www.buffalogroundhogday.com",
      "predictionsCount": 14
    },
    {
      "id": 42,
      "slug": "dover-doug",
      "name": "Dover Doug",
      "shortName": null,
      "region": "Pennsylvania",
      "country": "USA",
      "state": null,
      "city": "Dover Township",
      "latitude": null,
      "longitude": null,
      "source": "https://www.linkedin.com/in/dover-doug/",
      "predictionsCount": 14
    },
    {
      "id": 43,
      "slug": "fenwick-flossie",
      "name": "Fenwick Flossie",
      "shortName": null,
      "region": "Ontario",
      "country": "Canada",
      "state": null,
      "city": "Pelham",
      "latitude": null,
      "longitude": null,
      "source": "https://www.facebook.com/fabulousfenwicklions/",
      "predictionsCount": 14
    },
    {
      "id": 44,
      "slug": "lawrenceville-lucy",
      "name": "Lawrenceville Lucy",
      "shortName": null,
      "region": "Pennsylvania",
      "country": "USA",
      "state": null,
      "city": "Lawrenceville",
      "latitude": null,
      "longitude": null,
      "source": "https://www.facebook.com/LawrencevilleLucy",
      "predictionsCount": 14
    },
    {
      "id": 45,
      "slug": "mount-joy-minnie",
      "name": "Mount Joy Minnie",
      "shortName": null,
      "region": "Pennsylvania",
      "country": "USA",
      "state": null,
      "city": "Mount Joy",
      "latitude": null,
      "longitude": null,
      "source": "https://www.facebook.com/mountjoychamber",
      "predictionsCount": 18
    },
    {
      "id": 46,
      "slug": "patty-pagoda",
      "name": "Patty Pagoda",
      "shortName": null,
      "region": "Pennsylvania",
      "country": "USA",
      "state": null,
      "city": "Reading",
      "latitude": null,
      "longitude": null,
      "source": "https://www.facebook.com/thereadingpagoda",
      "predictionsCount": 13
    },
    {
      "id": 47,
      "slug": "polk-county-paula",
      "name": "Polk County Paula",
      "shortName": null,
      "region": "Iowa",
      "country": "USA",
      "state": null,
      "city": "Des Moines",
      "latitude": null,
      "longitude": null,
      "source": "https://www.facebook.com/HighLifeLounge",
      "predictionsCount": 13
    },
    {
      "id": 48,
      "slug": "scramble-the-duck",
      "name": "Scramble the Duck",
      "shortName": null,
      "region": "Connecticut",
      "country": "USA",
      "state": null,
      "city": "Eastford",
      "latitude": null,
      "longitude": null,
      "source": "https://scrambletheduck.org",
      "predictionsCount": 12
    },
    {
      "id": 49,
      "slug": "snerd",
      "name": "Snerd",
      "shortName": null,
      "region": "North Carolina",
      "country": "USA",
      "state": null,
      "city": "Garner",
      "latitude": null,
      "longitude": null,
      "source": "https://www.facebook.com/GarnerParksRecreationAndCulturalResources",
      "predictionsCount": 12
    },
    {
      "id": 50,
      "slug": "tinicum-tim",
      "name": "Tinicum Tim",
      "shortName": null,
      "region": "Pennsylvania",
      "country": "USA",
      "state": null,
      "city": "Philadelphia",
      "latitude": null,
      "longitude": null,
      "source": "https://www.facebook.com/johnheinznwr",
      "predictionsCount": 12
    },
    {
      "id": 51,
      "slug": "wildwood-willie",
      "name": "Wildwood Willie",
      "shortName": null,
      "region": "Ohio",
      "country": "USA",
      "state": null,
      "city": "Toledo",
      "latitude": null,
      "longitude": null,
      "source": "https://www.facebook.com/MetroparksToledo",
      "predictionsCount": 12
    },
    {
      "id": 52,
      "slug": "benny-the-bass",
      "name": "Benny the Bass",
      "shortName": null,
      "region": "Ohio",
      "country": "USA",
      "state": null,
      "city": "Buckeye Lake",
      "latitude": null,
      "longitude": null,
      "source": "https://www.facebook.com/BuckeyeLakeWinterfest",
      "predictionsCount": 11
    },
    {
      "id": 53,
      "slug": "boise-bill",
      "name": "Boise Bill",
      "shortName": null,
      "region": "Idaho",
      "country": "USA",
      "state": null,
      "city": "Boise",
      "latitude": null,
      "longitude": null,
      "source": "https://www.facebook.com/zooboise",
      "predictionsCount": 10
    },
    {
      "id": 54,
      "slug": "chesapeake-chuck",
      "name": "Chesapeake Chuck",
      "shortName": null,
      "region": "Virginia",
      "country": "USA",
      "state": null,
      "city": "Newport News",
      "latitude": null,
      "longitude": null,
      "source": "https://www.facebook.com/VirginiaLivingMuseum",
      "predictionsCount": 12
    },
    {
      "id": 55,
      "slug": "harleysville-hank",
      "name": "Harleysville Hank",
      "shortName": null,
      "region": "Pennsylvania",
      "country": "USA",
      "state": null,
      "city": "Harleysville",
      "latitude": null,
      "longitude": null,
      "source": "https://www.facebook.com/harleysvillehank/",
      "predictionsCount": 11
    },
    {
      "id": 56,
      "slug": "big-al",
      "name": "Big Al",
      "shortName": null,
      "region": "Texas",
      "country": "USA",
      "state": null,
      "city": "Beaumont",
      "latitude": null,
      "longitude": null,
      "source": "https://www.facebook.com/gatorcountryrescue/",
      "predictionsCount": 10
    },
    {
      "id": 57,
      "slug": "smith-lake-jake",
      "name": "Smith Lake Jake",
      "shortName": null,
      "region": "Alabama",
      "country": "USA",
      "state": null,
      "city": "Smith Lake",
      "latitude": null,
      "longitude": null,
      "source": "https://www.facebook.com/smithlakejake.zgroundhog",
      "predictionsCount": 9
    },
    {
      "id": 58,
      "slug": "snowy-the-prairie-dog",
      "name": "Snowy the Prairie Dog",
      "shortName": null,
      "region": "Washington",
      "country": "USA",
      "state": null,
      "city": "Pend Oreille County",
      "latitude": null,
      "longitude": null,
      "source": "http://www.climatehawk.org/groundhog.html",
      "predictionsCount": 9
    },
    {
      "id": 59,
      "slug": "van-island-violet",
      "name": "Van Island Violet",
      "shortName": null,
      "region": "British Columbia",
      "country": "Canada",
      "state": null,
      "city": "Nanaimo",
      "latitude": null,
      "longitude": null,
      "source": "https://www.facebook.com/MarmotRecovery/",
      "predictionsCount": 10
    },
    {
      "id": 60,
      "slug": "charles-winchester",
      "name": "Charles \u201cChuck\u201d Winchester",
      "shortName": null,
      "region": "Indiana",
      "country": "USA",
      "state": null,
      "city": "Woodburn",
      "latitude": null,
      "longitude": null,
      "source": "https://www.facebook.com/profile.php?id=100064403303425",
      "predictionsCount": 9
    },
    {
      "id": 61,
      "slug": "chuck-wood",
      "name": "Chuck Wood",
      "shortName": null,
      "region": "California",
      "country": "USA",
      "state": null,
      "city": "Quincy",
      "latitude": null,
      "longitude": null,
      "source": "https://www.facebook.com/GroundhogFeverFest/",
      "predictionsCount": 8
    },
    {
      "id": 62,
      "slug": "concord-casimir",
      "name": "Concord Casimir",
      "shortName": null,
      "region": "Ohio",
      "country": "USA",
      "state": null,
      "city": "Concord",
      "latitude": null,
      "longitude": null,
      "source": "https://www.facebook.com/CasimirCleveland",
      "predictionsCount": 9
    },
    {
      "id": 63,
      "slug": "oil-springs-ollie",
      "name": "Oil Springs Ollie",
      "shortName": null,
      "region": "Ontario",
      "country": "Canada",
      "state": null,
      "city": "Oil Springs",
      "latitude": null,
      "longitude": null,
      "source": "https://www.facebook.com/profile.php?id=100068618865920",
      "predictionsCount": 8
    },
    {
      "id": 64,
      "slug": "athene-the-burrowing-owl",
      "name": "Athene the Burrowing Owl",
      "shortName": null,
      "region": "Florida",
      "country": "USA",
      "state": null,
      "city": "Cape Coral",
      "latitude": null,
      "longitude": null,
      "source": "https://www.facebook.com/profile.php?id=100064565954545",
      "predictionsCount": 8
    },
    {
      "id": 65,
      "slug": "cluxatawney-henrietta",
      "name": "Cluxatawney Henrietta",
      "shortName": null,
      "region": "New York",
      "country": "USA",
      "state": null,
      "city": "Katonah",
      "latitude": null,
      "longitude": null,
      "source": "https://www.facebook.com/muscootfarm/",
      "predictionsCount": 8
    },
    {
      "id": 66,
      "slug": "lucy-the-lobster",
      "name": "Lucy the Lobster",
      "shortName": null,
      "region": "Nova Scotia",
      "country": "Canada",
      "state": null,
      "city": "Barrington",
      "latitude": null,
      "longitude": null,
      "source": "https://twitter.com/lucylobsterns",
      "predictionsCount": 8
    },
    {
      "id": 67,
      "slug": "mount-gretna-grady",
      "name": "Mount Gretna Grady",
      "shortName": null,
      "region": "Pennsylvania",
      "country": "USA",
      "state": null,
      "city": "Mount Gretna",
      "latitude": null,
      "longitude": null,
      "source": "https://www.facebook.com/MtGretnaFireCompany/",
      "predictionsCount": 7
    },
    {
      "id": 68,
      "slug": "stumptown-fil",
      "name": "Stumptown Fil",
      "shortName": null,
      "region": "Oregon",
      "country": "USA",
      "state": null,
      "city": "Portland",
      "latitude": null,
      "longitude": null,
      "source": "https://www.facebook.com/oregonzoo",
      "predictionsCount": 7
    },
    {
      "id": 69,
      "slug": "yonah-the-groundhog",
      "name": "Yonah the Groundhog",
      "shortName": null,
      "region": "Georgia",
      "country": "USA",
      "state": null,
      "city": "Cleveland",
      "latitude": null,
      "longitude": null,
      "source": "https://www.facebook.com/nogawild/",
      "predictionsCount": 7
    },
    {
      "id": 70,
      "slug": "hope-the-groundhog",
      "name": "Hope the Groundhog",
      "shortName": null,
      "region": "Indiana",
      "country": "USA",
      "state": null,
      "city": "Hope",
      "latitude": null,
      "longitude": null,
      "source": "https://www.facebook.com/profile.php?id=100064771026348",
      "predictionsCount": 6
    },
    {
      "id": 71,
      "slug": "gordy-the-groundhog",
      "name": "Gordy the Groundhog",
      "shortName": null,
      "region": "Wisconsin",
      "country": "USA",
      "state": null,
      "city": "Milwaukee",
      "latitude": null,
      "longitude": null,
      "source": "https://www.facebook.com/MilwaukeeCountyZoo",
      "predictionsCount": 5
    },
    {
      "id": 72,
      "slug": "sylvia-the-apex-armadillo",
      "name": "Sylvia the Apex Armadillo",
      "shortName": null,
      "region": "North Carolina",
      "country": "USA",
      "state": null,
      "city": "Apex",
      "latitude": null,
      "longitude": null,
      "source": "https://www.facebook.com/AnimalEdventuresSanctuary",
      "predictionsCount": 6
    },
    {
      "id": 73,
      "slug": "birmingham-jill",
      "name": "Birmingham Jill",
      "shortName": null,
      "region": "Alabama",
      "country": "USA",
      "state": null,
      "city": "Birmingham",
      "latitude": null,
      "longitude": null,
      "source": "https://www.facebook.com/BirminghamZoo",
      "predictionsCount": 5
    },
    {
      "id": 74,
      "slug": "mt-parker",
      "name": "MT Parker",
      "shortName": null,
      "region": "Pennsylvania",
      "country": "USA",
      "state": null,
      "city": "Lancaster",
      "latitude": null,
      "longitude": null,
      "source": "https://www.facebook.com/ManheimTownshipRecreationDepartment",
      "predictionsCount": 6
    },
    {
      "id": 75,
      "slug": "heavens-wildlife-harvey",
      "name": "Heaven\u2019s Wildlife Harvey",
      "shortName": null,
      "region": "Ontario",
      "country": "Canada",
      "state": null,
      "city": "Oil Springs",
      "latitude": null,
      "longitude": null,
      "source": "https://www.facebook.com/profile.php?id=100068618865920",
      "predictionsCount": 3
    },
    {
      "id": 76,
      "slug": "lady-edwina-of-essex",
      "name": "Lady Edwina of Essex",
      "shortName": null,
      "region": "New Jersey",
      "country": "USA",
      "state": null,
      "city": "West Orange",
      "latitude": null,
      "longitude": null,
      "source": "https://www.facebook.com/TurtleBackZoo/",
      "predictionsCount": 5
    },
    {
      "id": 77,
      "slug": "okanagan-okie",
      "name": "Okanagan Okie",
      "shortName": null,
      "region": "British Columbia",
      "country": "Canada",
      "state": null,
      "city": "Vernon",
      "latitude": null,
      "longitude": null,
      "source": "https://www.facebook.com/AllanBrooksNatureCentre/",
      "predictionsCount": 5
    },
    {
      "id": 78,
      "slug": "poppy-the-groundhog",
      "name": "Poppy the Groundhog",
      "shortName": null,
      "region": "Pennsylvania",
      "country": "USA",
      "state": null,
      "city": "Millersville",
      "latitude": null,
      "longitude": null,
      "source": "https://www.facebook.com/AcornAcresWR",
      "predictionsCount": 4
    },
    {
      "id": 79,
      "slug": "queen-city-charlie",
      "name": "Queen City Charlie",
      "shortName": null,
      "region": "Maryland",
      "country": "USA",
      "state": null,
      "city": "Cumberland",
      "latitude": null,
      "longitude": null,
      "source": "https://www.facebook.com/cityofcumberlandmd",
      "predictionsCount": 5
    },
    {
      "id": 80,
      "slug": "portage-la-prairie-larry",
      "name": "Portage la Prairie Larry",
      "shortName": null,
      "region": "Manitoba",
      "country": "Canada",
      "state": null,
      "city": "Portage la Prairie",
      "latitude": null,
      "longitude": null,
      "source": "https://www.facebook.com/randy.joseph.lilley",
      "predictionsCount": 5
    },
    {
      "id": 81,
      "slug": "unadilla-billie",
      "name": "Unadilla Billie",
      "shortName": null,
      "region": "Nebraska",
      "country": "USA",
      "state": null,
      "city": "Unadilla",
      "latitude": null,
      "longitude": null,
      "source": "https://www.facebook.com/profile.php?id=100064741024244",
      "predictionsCount": 5
    },
    {
      "id": 82,
      "slug": "allen-mcbutterpants",
      "name": "Allen McButterpants",
      "shortName": null,
      "region": "New York",
      "country": "USA",
      "state": null,
      "city": "Hampton Bays",
      "latitude": null,
      "longitude": null,
      "source": "https://www.facebook.com/WildlifeRescueHospitalHamptons",
      "predictionsCount": 3
    },
    {
      "id": 83,
      "slug": "cedar-the-groundhog",
      "name": "Cedar the Groundhog",
      "shortName": null,
      "region": "Illinois",
      "country": "USA",
      "state": null,
      "city": "West Dundee",
      "latitude": null,
      "longitude": null,
      "source": "https://www.facebook.com/RandallOaksZoo",
      "predictionsCount": 4
    },
    {
      "id": 84,
      "slug": "cornelia-the-groundhog",
      "name": "Cornelia the Groundhog",
      "shortName": null,
      "region": "Massachusetts",
      "country": "USA",
      "state": null,
      "city": "Worcester",
      "latitude": null,
      "longitude": null,
      "source": "https://www.facebook.com/EcoTarium",
      "predictionsCount": 4
    },
    {
      "id": 85,
      "slug": "pisgah-penny",
      "name": "Pisgah Penny",
      "shortName": null,
      "region": "North Carolina",
      "country": "USA",
      "state": null,
      "city": "Brevard",
      "latitude": null,
      "longitude": null,
      "source": "https://www.facebook.com/whitesquirrelinstitute",
      "predictionsCount": 3
    },
    {
      "id": 86,
      "slug": "walnut-the-hedgehog",
      "name": "Walnut the Hedgehog",
      "shortName": null,
      "region": "Ohio",
      "country": "USA",
      "state": null,
      "city": "Dayton",
      "latitude": null,
      "longitude": null,
      "source": "https://www.facebook.com/BoonshoftMuseum/",
      "predictionsCount": 4
    },
    {
      "id": 87,
      "slug": "elliott-the-groundhog",
      "name": "Elliott the Groundhog",
      "shortName": null,
      "region": "Pennsylvania",
      "country": "USA",
      "state": null,
      "city": "Millersville",
      "latitude": null,
      "longitude": null,
      "source": "https://www.facebook.com/AcornAcresWR",
      "predictionsCount": 3
    },
    {
      "id": 88,
      "slug": "pisgah-piper",
      "name": "Pisgah Piper",
      "shortName": null,
      "region": "North Carolina",
      "country": "USA",
      "state": null,
      "city": "Brevard",
      "latitude": null,
      "longitude": null,
      "source": "https://www.facebook.com/whitesquirrelinstitute",
      "predictionsCount": 2
    },
    {
      "id": 89,
      "slug": "snack-town-steve",
      "name": "Snack Town Steve",
      "shortName": null,
      "region": "Pennsylvania",
      "country": "USA",
      "state": null,
      "city": "Hanover",
      "latitude": null,
      "longitude": null,
      "source": "https://www.facebook.com/QFSocial",
      "predictionsCount": 2
    }
  ]
}